{
    "stps": [
        {
            "stp_id": "PSTP001",
            "stp_name": "Purva Venezia",
            "latitude": 13.095310390735968,
            "longitude": 77.57043060702023,
            "technology": "WTP",
            "total_capacity_mld": 0.0,
            "current_load_mld": 0.0,
            "available_capacity_mld": 0.0,
            "treatment_cost_per_kl": 5.0,
            "quality_grade": "General",
            "last_reset_date": "2026-05-03"
        },
        {
            "stp_id": "PSTP002",
            "stp_name": "Purva Atria",
            "latitude": 13.025065701803927,
            "longitude": 77.57727923609258,
            "technology": "Not Specified",
            "total_capacity_mld": 0.0,
            "current_load_mld": 0.0,
            "available_capacity_mld": 0.0,
            "treatment_cost_per_kl": 5.0,
            "quality_grade": "General",
            "last_reset_date": "2026-05-03"
        },
        {
            "stp_id": "PSTP003",
            "stp_name": "Starworth - Harmony",
            "latitude": 12.974939179839383,
            "longitude": 77.61982521377139,
            "technology": "300 KLD SBR",
            "total_capacity_mld": 0.3,
            "current_load_mld": 0.195,
            "available_capacity_mld": -0.04999999999999999,
            "treatment_cost_per_kl": 6.0,
            "quality_grade": "Gold",
            "last_reset_date": "2026-05-03"
        },
        {
            "stp_id": "PSTP004",
            "stp_name": "Purva Atria",
            "latitude": 13.025065701803927,
            "longitude": 77.57727923609258,
            "technology": "5 m3 WTP",
            "total_capacity_mld": 0.0,
            "current_load_mld": 0.0,
            "available_capacity_mld": 0.0,
            "treatment_cost_per_kl": 5.0,
            "quality_grade": "General",
            "last_reset_date": "2026-05-03"
        },
        {
            "stp_id": "PSTP005",
            "stp_name": "Purva Palm Beach - Labour Colony",
            "latitude": 13.061997798871532,
            "longitude": 77.66166482047305,
            "technology": "40 KLD Packaged Plant",
            "total_capacity_mld": 0.04,
            "current_load_mld": 0.026,
            "available_capacity_mld": 0.04,
            "treatment_cost_per_kl": 7.0,
            "quality_grade": "Silver",
            "last_reset_date": "2026-05-03"
        },
        {
            "stp_id": "PSTP006",
            "stp_name": "Provident Haromoy",
            "latitude": 12.974939179839383,
            "longitude": 77.61982521377139,
            "technology": "400 KLD SBR",
            "total_capacity_mld": 0.4,
            "current_load_mld": 0.26,
            "available_capacity_mld": 0.4,
            "treatment_cost_per_kl": 6.0,
            "quality_grade": "Gold",
            "last_reset_date": "2026-05-03"
        },
        {
            "stp_id": "PSTP007",
            "stp_name": "Purva Skywood Phase 2",
            "latitude": 12.893302628077201,
            "longitude": 77.66094961221663,
            "technology": "15 cum/hr WTP",
            "total_capacity_mld": 0.36,
            "current_load_mld": 0.234,
            "available_capacity_mld": 0.36,
            "treatment_cost_per_kl": 5.0,
            "quality_grade": "General",
            "last_reset_date": "2026-05-03"
        },
        {
            "stp_id": "PSTP008",
            "stp_name": "Purva Venezia",
            "latitude": 13.095310390735968,
            "longitude": 77.57043060702023,
            "technology": "600 KLD MBR (Upgradation)",
            "total_capacity_mld": 0.6,
            "current_load_mld": 0.39,
            "available_capacity_mld": 0.49999999999999994,
            "treatment_cost_per_kl": 9.5,
            "quality_grade": "Platinum",
            "last_reset_date": "2026-05-03"
        },
        {
            "stp_id": "PSTP009",
            "stp_name": "Purva Atmosphere",
            "latitude": 13.06379049657812,
            "longitude": 77.6358331667833,
            "technology": "780 KLD MBR",
            "total_capacity_mld": 0.78,
            "current_load_mld": 0.507,
            "available_capacity_mld": 0.775,
            "treatment_cost_per_kl": 9.5,
            "quality_grade": "Platinum",
            "last_reset_date": "2026-05-03"
        },
        {
            "stp_id": "PSTP010",
            "stp_name": "Purva Palm Beach Phase 3",
            "latitude": 13.061997798871532,
            "longitude": 77.66166482047305,
            "technology": "125 KLD MBR",
            "total_capacity_mld": 0.125,
            "current_load_mld": 0.081,
            "available_capacity_mld": 0.125,
            "treatment_cost_per_kl": 9.5,
            "quality_grade": "Platinum",
            "last_reset_date": "2026-05-03"
        },
        {
            "stp_id": "PSTP011",
            "stp_name": "Provident Neora",
            "latitude": 13.083435011394231,
            "longitude": 77.61969157012948,
            "technology": "175 KLD SBR",
            "total_capacity_mld": 0.175,
            "current_load_mld": 0.114,
            "available_capacity_mld": 0.175,
            "treatment_cost_per_kl": 6.0,
            "quality_grade": "Gold",
            "last_reset_date": "2026-05-03"
        },
        {
            "stp_id": "PSTP012",
            "stp_name": "Tivoli Hills",
            "latitude": 13.25845949128522,
            "longitude": 77.70906760007905,
            "technology": "800 KLD SBR",
            "total_capacity_mld": 0.8,
            "current_load_mld": 0.52,
            "available_capacity_mld": 0.8,
            "treatment_cost_per_kl": 6.0,
            "quality_grade": "Gold",
            "last_reset_date": "2026-05-03"
        },
        {
            "stp_id": "PSTP013",
            "stp_name": "Tivoli Hills",
            "latitude": 13.25845949128522,
            "longitude": 77.70906760007905,
            "technology": "20 KLD Package Plant",
            "total_capacity_mld": 0.02,
            "current_load_mld": 0.013,
            "available_capacity_mld": 0.02,
            "treatment_cost_per_kl": 7.0,
            "quality_grade": "Silver",
            "last_reset_date": "2026-05-03"
        },
        {
            "stp_id": "PSTP014",
            "stp_name": "Tivoli Hills",
            "latitude": 13.25845949128522,
            "longitude": 77.70906760007905,
            "technology": "450 KLD WTP",
            "total_capacity_mld": 0.45,
            "current_load_mld": 0.292,
            "available_capacity_mld": 0.45,
            "treatment_cost_per_kl": 5.0,
            "quality_grade": "General",
            "last_reset_date": "2026-05-03"
        }
    ]
}